[{
        "coordinates": "55.75399399999374,37.62209300000001",
        "city": "Москва",
        "objects": [{
                "name": "ООО «Магнит»",
                "address": "Москва",
                "desc": "Поставка передаточных окон."
            },
            {
                "name": "ООО «Больницы»",
                "address": "Москва",
                "desc": "Проектирование чистого помещения."
            },
            {
                "name": "Госкорпорация «Роскосмос»",
                "address": "Москова",
                "desc": "Разработка, доставка, инсталляция и отладка воздушных душей."
            },
            {
                "name": "ООО «Мерседес-Бенц Мануфэкчуринг Рус»",
                "address": "Московская область, индустриальный парк «Есипово»",
                "desc": "Проектирование, поставка и монтаж воздушных душей."
            },
            {
                "name": "ВОЗДУШНЫЙ ДУШ ДЛЯ ООО «Самсунг Электроникс Рус Калуга»",
                "address": "Московская область",
                "desc": "Завод Samsung Electronics в Калужской области (ООО «Самсунг Электроникс Рус Калуга») — российский завод бренда Samsung, на котором производится 100% всех продаваемых в России телевизоров, а также мониторы и стиральные машины под брендом Samsung. "
            },
            {
                "name": "ВОЗДУШНЫЙ ДУШ ДЛЯ АЛЬГИМЕД",
                "address": "Москва",
                "desc": "Компания Альгимед, созданная в 2004 году, является поставщиком лабораторного оборудования, химических реактивов, реагентов и расходных материалов более 100 брендов. Среди них и ряд мировых производителей, с которыми заключены эксклюзивные дистрибьюторские соглашения. "
            },
            {
                "name": "ЧИСТЫЕ ПОМЕЩЕНИЯ ДЛЯ ЛЕКФАРМ",
                "address": "Москва",
                "desc": "СООО «Лекфарм» – это предприятие, занимающееся разработкой, производством и реализацией лекарственных средств, визитной карточкой которого стали современное производство, многоэтапный контроль качества и высококвалифицированный персонал. "
            }
        ]

    },

    {
        "coordinates": "60.0435884495561,30.56800102955574",
        "city": "Caнкт-Петербург"
    },

    {
        "coordinates": "53.91038618656247,27.561528077528898",
        "city": "Минск",

        "objects": [{
                "name": "ООО «Магнит»",
                "address": "Москва",
                "desc": "Поставка передаточных окон."
            },
            {
                "name": "ООО «Больницы»",
                "address": "Москва",
                "desc": "Проектирование чистого помещения."
            }
        ]
    },

    {
        "city": "Архангельск",
        "coordinates": "64.54227525190274,40.532241492187"
    },

    {
        "city": "Петрозаводск",
        "coordinates": "61.78485843850668,34.3480796296386"
    },

    {
        "city": "Калининград",
        "coordinates": "54.710161999980535,20.510651984130842"
    },
    {
        "city": "Нижний Новгород",
        "coordinates": "56.326725468098644,44.00643016931145"
    },
    {
        "city": "Сыктывкар",
        "coordinates": "61.668796999955276,50.83632533862301"
    },
    {
        "city": "Самара",
        "coordinates": "53.19581357003784,50.10009471163939"
    },
    {
        "city": "Ленинский район",
        "coordinates": "51.66072761974125,39.20021016931153"
    },
    {
        "city": "Волгоград",
        "coordinates": "48.70699599161881,44.516996457672136"
    },
    {
        "city": "Казань",
        "coordinates": "55.796006120894944,49.10639254232784"
    },
    {
        "city": "Краснодар",
        "coordinates": "45.035272211229056,38.97550611904896"
    },
    {
        "city": "Ростов-на-Дону",
        "coordinates": "47.221918959808605,39.718727169311386"
    },
    {
        "city": "Пермь",
        "coordinates": "58.009680538570095,56.228756354492035"
    },
    {
        "city": "Екатеринбург",
        "coordinates": "56.85432556476527,60.60131494824111"
    },
    {
        "city": "Челябинск",
        "coordinates": "55.1431273038996,61.4143032294906"
    },
    {
        "city": "Тюмень",
        "coordinates": "57.201800756503665,65.65502588573983"
    },
    {
        "city": "Курган",
        "coordinates": "55.49396494351357,65.30346338573943"
    },
    {
        "city": "Петропавловск",
        "coordinates": "54.827238670332584,69.17065088573904"
    },
    {
        "city": "Омск",
        "coordinates": "54.94124627668723,73.34545557323828"
    },
    {
        "city": "Астана",
        "coordinates": "51.185221461764165,71.47777979198776"
    },
    {
        "city": "Ташкент",
        "coordinates": "41.481930725204435,69.32445947948685"
    },
    {
        "city": "Новосибирск",
        "coordinates": "55.01442414492607,82.91219025390616"
    },
    {
        "city": "Красноярск",
        "coordinates": "56.01515877573219,92.86906049218744"
    },
    {
        "city": "Иркутск",
        "coordinates": "52.27105746366453,104.27511283593749"
    },
    {
        "city": "Благовещенск",
        "coordinates": "50.25349395725055,127.53529764550768"
    }


]